{
  "results": [
    {
      "name": "Fakultas Ilmu Komputer",
      "vicinity": "Universitas Brawijaya, Jl. Veteran, Malang, Jawa Timur, Indonesia",
      "geometry": {
        "location": {
          "lat": -7.983008,
          "lng": 112.619369
        }
      },
      "parking_capacity": {
        "total": 200,
        "available": 50
      }
    },
    {
      "name": "Fakultas Teknik",
      "vicinity": "Universitas Brawijaya, Jl. Veteran, Malang, Jawa Timur, Indonesia",
      "geometry": {
        "location": {
          "lat": -7.981374,
          "lng": 112.619806
        }
      },
      "parking_capacity": {
        "total": 150,
        "available": 30
      }
    },
    {
      "name": "Fakultas Pertanian",
      "vicinity": "Universitas Brawijaya, Jl. Veteran, Malang, Jawa Timur, Indonesia",
      "geometry": {
        "location": {
          "lat": -7.980119,
          "lng": 112.617594
        }
      },
      "parking_capacity": {
        "total": 100,
        "available": 10
      }
    },
    {
      "name": "Fakultas Ekonomi dan Bisnis",
      "vicinity": "Universitas Brawijaya, Jl. Veteran, Malang, Jawa Timur, Indonesia",
      "geometry": {
        "location": {
          "lat": -7.979258,
          "lng": 112.619231
        }
      },
      "parking_capacity": {
        "total": 250,
        "available": 80
      }
    },
    {
      "name": "Fakultas Hukum",
      "vicinity": "Universitas Brawijaya, Jl. Veteran, Malang, Jawa Timur, Indonesia",
      "geometry": {
        "location": {
          "lat": -7.981854,
          "lng": 112.617825
        }
      },
      "parking_capacity": {
        "total": 120,
        "available": 40
      }
    }
  ]
}
